{"success":true,"businesses":[{"id":"rec0qqjr7pxmXXuTh","name":"Rescue Spa","slug":"rescue-spa-nyc","category":"Med Spas","city":"New York","neighborhood":"Flatiron","address":"21 E 22nd St, New York, NY 10010","phone":"(212) 206-6409","website":"https://www.rescue-spa.com","description":"Luxury facial spa and skincare destination offering cutting-edge treatments, curated product collections, and expert aestheticians in a serene Flatiron setting.","image_url":"","rating":null,"review_count":null,"price_range":"$$$","featured":false,"services":"","hours":"","source":"Manual"},{"id":"rec1FIfuin9wYaV6Y","name":"Anso Med Spa by ann+sofia beauty concept","slug":"anso-med-spa-by-ann-sofia-beauty-concept","category":"Med Spas","city":"New York","neighborhood":"New York","address":"315 5th Ave #1004, New York, NY 10016، الولايات المتحدة","phone":"+1 917-900-8600","website":"https://linktr.ee/anso_medspa","description":"","image_url":"https://lh3.googleusercontent.com/gps-cs-s/AHVAweq7qhXrEEZbvr-w-R7aldOvViqW10BfAs7cxdpzy4wBxWBv9NFAh77cOlXpnHNzv5y2UIMZbI6snsHMu89y1vmRkz4h3GtX5DOHEYvEqpU76_dUBuZSd1WJPver5IA8lDR2NVaJgJXY2VU=w408-h271-k-no","rating":4.8,"review_count":null,"price_range":"","featured":false,"services":"","hours":"الخميس: ","source":"Google Maps"},{"id":"rec2tPkTmiOPHfHYU","name":"dineDK Private Dining","slug":"dinedk-private-dining","category":"Private Chefs","city":"New York","neighborhood":"New York","address":"169 Madison Ave Suite 2505, New York, NY 10016، الولايات المتحدة","phone":"+1 646-979-0227","website":"http://dinedk.com/","description":"","image_url":"","rating":5,"review_count":null,"price_range":"","featured":false,"services":"","hours":"الخميس: ","source":"Google Maps"},{"id":"rec36WVfIfN0zXJ7t","name":"HOLM Interior Design","slug":"holm-interior-design","category":"Interior Designers","city":"New York","neighborhood":"New York","address":"110 E 59th St 23rd floor, New York, NY 10022، الولايات المتحدة","phone":"+1 646-868-5729","website":"https://www.holminteriordesign.com/","description":"","image_url":"","rating":4.8,"review_count":null,"price_range":"","featured":false,"services":"","hours":"الخميس: ","source":"Google Maps"},{"id":"rec4q21LPy9L4BrHj","name":"Kymi Kitchen NYC","slug":"kymi-kitchen-nyc","category":"Private Chefs","city":"New York","neighborhood":"New York","address":"800 3rd Ave Ste. 1366, New York, NY 10022، الولايات المتحدة","phone":"+1 718-536-9101","website":"http://www.kymikitchen.com/","description":"","image_url":"","rating":4.8,"review_count":null,"price_range":"","featured":false,"services":"","hours":"الخميس: ","source":"Google Maps"},{"id":"rec5jbTgStJ1LCuPH","name":"Koru Wellness Aesthetics NYC: Med Spa Upper East Side & Midtown","slug":"koru-wellness-aesthetics-nyc-med-spa-upper-east-side-midtown","category":"Med Spas","city":"New York","neighborhood":"New York","address":"341 E 78th St Ground Floor, New York, NY 10075، الولايات المتحدة","phone":"+1 212-396-3672","website":"http://www.korunyc.com/","description":"","image_url":"https://lh3.googleusercontent.com/gps-cs-s/AHVAwer3li4Xwom-Kd8zQbpHx_ZOe59nybxeQZjMTBX4aC8p7f0s6VypYL-DmjwCLX6x1PYwjBirpvegjEPo4C1a5Tyj76LXCXynF5DcoN6hywbJvvfFlBBkNMrz1zVDQqREsrB5Nx1ByA=w408-h544-k-no","rating":4.9,"review_count":null,"price_range":"","featured":false,"services":"","hours":"الخميس: ","source":"Google Maps"},{"id":"rec6EB5pyQ5Y3BMoG","name":"Nate Berkus Associates","slug":"nate-berkus-associates","category":"Interior Designers","city":"New York","neighborhood":"Midtown","address":"New York, NY 10019","phone":"","website":"https://www.nateberkus.com","description":"Celebrity interior designer Nate Berkus and team crafting timeless, lived-in luxury for high-end residential clients across Manhattan.","image_url":"http://nateberkus.com/cdn/shop/files/NB_LOGO_FINAL_BLK_1_-01.png?height=628&pad_color=ffffff&v=1662735954&width=1200","rating":null,"review_count":null,"price_range":"$$$$","featured":false,"services":"","hours":"","source":"Manual"},{"id":"rec8KteUEdHXAyFUY","name":"Sisu Clinic Flatiron | Doctor-led Aesthetic Medicine & Treatments","slug":"sisu-clinic-flatiron-doctor-led-aesthetic-medicine-treatments","category":"Med Spas","city":"New York","neighborhood":"New York","address":"61 W 23rd St, New York, NY 10010، الولايات المتحدة","phone":"+1 646-693-0132","website":"http://www.sisuclinic.com/","description":"","image_url":"https://lh3.googleusercontent.com/gps-cs-s/AHVAwepEcQQZwmek9MLQrRgHfC8p2mWmclc3VPTgVEulZHy8sNT1-QPGMXdK7tGzsoRbhJQuwqAXKmNz88Ho_hapIPbeyhd6H1TvT5zfDfMzQbHS5DjxDj7G07TS9xNk-UcGSBdjlzeU=w408-h544-k-no","rating":4.9,"review_count":null,"price_range":"","featured":false,"services":"","hours":"الخميس: ","source":"Google Maps"},{"id":"rec8Oe0679lB3Flgh","name":"Private Chef NYC | JP Fine Foods LLC | Cocktail Catering NYC","slug":"private-chef-nyc-jp-fine-foods-llc-cocktail-catering-nyc","category":"Private Chefs","city":"New York","neighborhood":"New York","address":"315 E 72nd St 10th fl, New York, NY 10021، الولايات المتحدة","phone":"+1 917-776-8203","website":"https://jpfinefoodsllc.com/","description":"","image_url":"https://lh3.googleusercontent.com/gps-cs-s/AHVAweppE5xvzMuO5njz-IahCx8386AHyQ9NPhruhZsgGlhMq4IYIWn6bk8O7wtTEKoGx01Br2kTdr6SXVwp3cdzLw1LtGdJJhpdpTeNsgjgnIB5DGB08CttmPw0OyLb6s_s1UJxDG7x=w408-h407-k-no","rating":5,"review_count":null,"price_range":"","featured":false,"services":"","hours":"الخميس: ","source":"Google Maps"},{"id":"rec8QMCuGQYmUrLIK","name":"Tara Benet Design","slug":"tara-benet-design","category":"Interior Designers","city":"New York","neighborhood":"New York","address":"1216 Broadway, Fourth Fl, New York, NY 10001، الولايات المتحدة","phone":"+1 917-510-7210","website":"http://tarabenet.com/","description":"","image_url":"https://lh3.googleusercontent.com/gps-cs-s/AHVAwer-ZFRavIaVAEtUKrgXoFEHbHSCqSygRKfTRrMUDgQe33ud0BITVHmiRfBHruSTzcQxqKTd4CDTmbdKqylFGqB4ar3nwYmlxWLYXECN-fX8qwUZNTJAtGfXQhPWwiKc-DgLCP-n=w408-h259-k-no","rating":4.8,"review_count":null,"price_range":"","featured":false,"services":"","hours":"الخميس: ","source":"Google Maps"},{"id":"rec8VJZg4cHUsGhWo","name":"Timeless MedSpa NYC","slug":"timeless-medspa-nyc","category":"Med Spas","city":"New York","neighborhood":"New York","address":"791 Park Ave Apt 1b, New York, NY 10021، الولايات المتحدة","phone":"+1 212-931-1877","website":"https://timelessbyvantage.com/","description":"","image_url":"https://lh3.googleusercontent.com/gps-cs-s/AHVAweq7LlaUr2TD2kR3lT2Fi-ucjamLx7pdmrFCWTBmQaDHcGOlZC3FHK9icnlNxMEdIZKf_V6BFEQY5Z6f9hG8X_p0JeGI4oqvnzKSEMC2rJTUV7oLinOyQyPQsw-ZVaumH9DfpaXM=w408-h408-k-no","rating":5,"review_count":null,"price_range":"","featured":false,"services":"","hours":"الخميس: ","source":"Google Maps"},{"id":"recArVHmf25esXDrH","name":"UPKEEP MED SPA","slug":"upkeep-med-spa","category":"Med Spas","city":"New York","neighborhood":"New York","address":"330 E 76th St, New York, NY 10021، الولايات المتحدة","phone":"+1 833-875-3377","website":"http://www.upkeepmedspa.com/","description":"","image_url":"https://lh3.googleusercontent.com/gps-cs-s/AHVAwep5sHeJQZJ739v2RqT8ZqqlB9I2Kv95NAwlYE_yLdr234z-rMEidaz1goRW-mMOxU4B_ZDPwn3cULXUlud5s6PNAVWyRkLz0jDPvoPFwnwnu_LKD0xKWwZFoeGqRQpUkj2NnTar3Q=w408-h271-k-no","rating":4.7,"review_count":null,"price_range":"","featured":false,"services":"","hours":"","source":"Google Maps"},{"id":"recAuvCxiYGnNriW8","name":"Manhattan Aesthetics","slug":"manhattan-aesthetics","category":"Med Spas","city":"New York","neighborhood":"New York","address":"36 E 36th St 2nd Floor, New York, NY 10016، الولايات المتحدة","phone":"+1 212-960-8172","website":"https://www.manhattan-aesthetics.com/?utm_source=google&utm_medium=organic&utm_campaign=gmb","description":"","image_url":"https://lh3.googleusercontent.com/gps-cs-s/AHVAwep6FDGWQMSU7RfM4R4NPfAAW6FGGySHei93aI5QMHifhmfTuy9Px8BHPrrkgIvRqP_3CKIUzPFxEx_UcGP2kyWbSMMejkNQB2Kf5XPI_xGfD2hVeqJrlvYGKbzfliA5iDMbrqhm1Q=w86-h114-k-no","rating":4.9,"review_count":null,"price_range":"","featured":false,"services":"","hours":"الخميس: ","source":"Google Maps"},{"id":"recCzcNKERh3ketgv","name":"darci hether new york, interior designer","slug":"darci-hether-new-york-interior-designer","category":"Interior Designers","city":"New York","neighborhood":"New York","address":"224 W 30th St #1201, New York, NY 10001، الولايات المتحدة","phone":"+1 212-568-0464","website":"http://www.darcihether.com/","description":"","image_url":"https://lh3.googleusercontent.com/gps-cs-s/AHVAweqoTjaWTgFvtV4DrQNTc-2G0Wmll3EEQa89sJX9q3GUIVd7B5OQYHU9uTrkytIm71ZDTPbFy6mQDGiA973eu3uegemPi8K_O5i1rF0hPKPHLC3Hhfy7BUxBUDBMGkl76PC_pkXCwJPeD7Ck=w408-h255-k-no","rating":4.7,"review_count":null,"price_range":"","featured":false,"services":"","hours":"الخميس: ","source":"Google Maps"},{"id":"recFPXmnvhiiSckxQ","name":"Joanna Vargas - New York","slug":"joanna-vargas-new-york","category":"Med Spas","city":"New York","neighborhood":"New York","address":"501 5th Ave 3rd Floor Suite 300, New York, NY 10017، الولايات المتحدة","phone":"+1 212-949-2350","website":"https://joannavargas.com/collections/new-york-spa","description":"","image_url":"https://lh3.googleusercontent.com/gps-cs-s/AHVAwer8lAheFKdZ0DcVq9afOH-1zFVEvrKJfgqcy7zVs_RmYlCsiCcrCJn6zp6_4qR9cGwAYIrH9d35KWSpQIe2u3HJm38BTq8FlrKrGceKTL8_HY9BjUfNZNaObdGDo6c25POK0BJ2-yPpqMKz=w128-h86-k-no","rating":4.7,"review_count":null,"price_range":"","featured":false,"services":"","hours":"الخميس: ","source":"Google Maps"},{"id":"recFUd0UU8uTzVkZk","name":"Ever/Body","slug":"ever-body-nyc","category":"Med Spas","city":"New York","neighborhood":"Midtown","address":"485 Madison Ave, New York, NY 10022","phone":"(212) 505-1512","website":"https://www.everbody.com","description":"Modern aesthetic clinic focused on transparency and expertise. Botox, fillers, CoolSculpting, and laser services with board-certified providers.","image_url":"https://everbody.com/wp-content/uploads/2025/04/explore-all-treatments.jpg","rating":null,"review_count":null,"price_range":"$$$$","featured":false,"services":"","hours":"","source":"Manual"},{"id":"recH5wOZEqKXdqApf","name":"Arsight Studio | Interior Designers in NYC","slug":"arsight-studio-interior-designers-in-nyc","category":"Interior Designers","city":"New York","neighborhood":"New York","address":"26 Broadway 8 Floor, New York, NY 10004، الولايات المتحدة","phone":"+1 551-229-7840","website":"https://www.arsight.co/","description":"","image_url":"https://lh3.googleusercontent.com/gps-cs-s/AHVAwepc-lQ0C7Pt8Rh44cmXhj4l7PqyPTDTDu1ELzicPbvkPNBkzMzdA3_EtrWgGhQeJ_eux9V40TWRl6G2EMSLozpMp7KyBaNJ9nRdtSlTFgrTeS3kjyQan4Tx1oMOhK472y5eD-o=w408-h306-k-no","rating":5,"review_count":null,"price_range":"","featured":false,"services":"","hours":"الخميس: ","source":"Google Maps"},{"id":"recHJbDJ9chmMn94I","name":"The Up Studio : Architecture, Interior, and Brand Design","slug":"the-up-studio-architecture-interior-and-brand-design","category":"Interior Designers","city":"New York","neighborhood":"Long Island City","address":"44-02 11th St Studio 405, Long Island City, NY 11101، الولايات المتحدة","phone":"+1 646-820-3529","website":"https://www.theupstudio.com/","description":"","image_url":"https://lh3.googleusercontent.com/gps-cs-s/AHVAwepdJ5Khwb-FvhzlsXYrsrBBVZYLNxyQ4XbzzA5ZC_VyMHiFlKKNMcmD2WMaQ1dNurqqLEbQZ_TN11mFkrZ-1Gfm3D3DxrNfLUVGzUXwwKOR2o4KQic4uQ8-HSiEBaeePeB86ilfynI6Zfyp=w408-h325-k-no","rating":5,"review_count":null,"price_range":"","featured":false,"services":"","hours":"الخميس: ","source":"Google Maps"},{"id":"recHu1o0tvGkLf0Fa","name":"Tribeca MedSpa","slug":"tribeca-medspa","category":"Med Spas","city":"New York","neighborhood":"Tribeca","address":"77 Worth St, New York, NY 10013","phone":"(212) 925-8500","website":"https://www.tribecamedspa.com","description":"Full-service medical spa offering body contouring, laser treatments, injectables, and skin rejuvenation in a luxury downtown setting.","image_url":"https://www.tribecamedspa.com/wp-content/uploads/2025/08/TMS-AYA-Web-Banner.png","rating":null,"review_count":null,"price_range":"$$$$","featured":false,"services":"","hours":"الخميس: ","source":"Manual"},{"id":"recJ23DX71f3BZwHp","name":"Smooth Synergy Medical Spa","slug":"smooth-synergy","category":"Med Spas","city":"New York","neighborhood":"Midtown East","address":"686 Lexington Ave, New York, NY 10022","phone":"(212) 397-0111","website":"https://www.smoothsynergy.com","description":"Award-winning med spa specializing in laser hair removal, skin tightening, and anti-aging treatments. Over 15 years serving NYC clients.","image_url":"https://smoothsynergy.com/wp-content/uploads/face500.jpeg","rating":null,"review_count":null,"price_range":"$$$","featured":false,"services":"","hours":"الخميس: ","source":"Manual"},{"id":"recJGKw5YmkoQ6f1y","name":"Silver Mirror Facial Bar - Upper East Side","slug":"silver-mirror-facial-bar-upper-east-side","category":"Med Spas","city":"New York","neighborhood":"New York","address":"862 Lexington Ave, New York, NY 10065، الولايات المتحدة","phone":"+1 646-861-0089","website":"https://silvermirror.com/locations/ues/","description":"","image_url":"https://lh3.googleusercontent.com/gps-cs-s/AHVAwermov3_VwxIMBKivNsO2svOjfTQ_6rOYemVMsOUg1R3JsRVzVQWOYvoIp4gT1ggwLCSOR5jdiZyO4rMH5rAR_oW2Iv6ojqwTlGIMrc0jmUwOV6YVi-aYKCeEXeFlrSVEsbRRVyHaQ=w408-h271-k-no","rating":4.6,"review_count":null,"price_range":"","featured":false,"services":"","hours":"الخميس: ","source":"Google Maps"},{"id":"recLQewzWRj9Q8uOF","name":"NYC Rejuvenation Clinic","slug":"nyc-rejuvenation-clinic","category":"Med Spas","city":"New York","neighborhood":"New York","address":"77 Irving Pl Suite 2A, New York, NY 10003، الولايات المتحدة","phone":"+1 212-245-0070","website":"https://rejuvenationny.com/","description":"","image_url":"https://lh3.googleusercontent.com/gps-cs-s/AHVAweoTmGUP7fx9V_vwqq3fLvpay0TGUugdM_vdsxytzlcdS0vyR6kc4LE-8Fn5Etj1NbKJrIP8XDjhYxGbUl465KZRriCEL-eu2EzpHJ7c75u2YB9gXyWGJ0xo45xQR5MZNjMUMq5I5g=w408-h272-k-no","rating":4.5,"review_count":null,"price_range":"","featured":false,"services":"","hours":"الخميس: ","source":"Google Maps"},{"id":"recMBiz39OWDmvBfg","name":"La Petite Gloutonne | Private Chef NYC","slug":"la-petite-gloutonne-private-chef-nyc","category":"Private Chefs","city":"New York","neighborhood":"","address":"","phone":"+1 917-932-6664","website":"http://www.lapetitegloutonne.com/","description":"","image_url":"","rating":4.8,"review_count":null,"price_range":"","featured":false,"services":"","hours":"الخميس: ","source":"Google Maps"},{"id":"recMYaNKFLy5ndDjv","name":"Decorilla Interior Designers","slug":"decorilla-interior-designers","category":"Interior Designers","city":"New York","neighborhood":"","address":"","phone":"+1 877-332-6760","website":"http://www.decorilla.com/","description":"","image_url":"","rating":4.5,"review_count":null,"price_range":"","featured":false,"services":"","hours":"","source":"Google Maps"},{"id":"recNfTIu2BqxJjAQw","name":"Allure Day Spa & Hair Design - Best Head Spa, Facial, Massage, and Beauty Salon near Me NYC","slug":"allure-day-spa-hair-design-best-head-spa-facial-massage-and-beauty-salon-near-me-nyc","category":"Med Spas","city":"New York","neighborhood":"New York","address":"139 E 55th St, New York, NY 10022، الولايات المتحدة","phone":"+1 212-644-5500","website":"http://alluredayspa.com/","description":"","image_url":"https://lh3.googleusercontent.com/gps-cs-s/AHVAweogTt32f6ehqBdz_QmkY4rbHgFH4mQS_H_-muUBUUgeiHfiU-dfsKmim1tYwg2gpyWis7udf-XN96jMySrDOfiyEbQnGkZItFg0urXD6Jy9qP4GoVIadew2l3gestYkiJK8ys5qI16cEylZ=w408-h272-k-no","rating":4.9,"review_count":null,"price_range":"","featured":false,"services":"","hours":"الخميس: ","source":"Google Maps"},{"id":"recNsNJURlKEYOVdP","name":"Luxury MedSpa","slug":"luxury-medspa","category":"Med Spas","city":"New York","neighborhood":"New York","address":"37 W 26th St Suite 400b, New York, NY 10010، الولايات المتحدة","phone":"+1 212-641-0665","website":"http://www.luxuryspany.com/","description":"","image_url":"https://streetviewpixels-pa.googleapis.com/v1/thumbnail?panoid=vmso1X5uR7Z3PeMESWsufg&cb_client=search.gws-prod.gps&w=408&h=240&yaw=23.868618&pitch=0&thumbfov=100","rating":2.9,"review_count":null,"price_range":"","featured":false,"services":"","hours":"الخميس: ","source":"Google Maps"},{"id":"recP7oLpXRcgFtMur","name":"Center Aesthetic & Dermatology","slug":"center-aesthetic-dermatology","category":"Med Spas","city":"New York","neighborhood":"New York","address":"37 Union Square W floor 4, New York, NY 10003، الولايات المتحدة","phone":"+1 212-433-3344","website":"https://www.centeraesthetic.com/","description":"","image_url":"https://lh3.googleusercontent.com/gps-cs-s/AHVAwer7K5eM2LWFJvDPeKpW1Ezq5P5A6JuS0jhIrjjdLg_f1vq0ZxRAv6bg3R-PDXPqA1VAFe4MxXfOh1LDnmcObrd6eArcEiTT-y4d71G0pQLkiOOEgVrlrUcWoajBawHxBWOM_A=w129-h86-k-no","rating":5,"review_count":null,"price_range":"","featured":false,"services":"","hours":"الخميس: ","source":"Google Maps"},{"id":"recPBC2Mt0UwYpQVt","name":"Jensen & Co. | Interior Designers NYC","slug":"jensen-co-interior-designers-nyc","category":"Interior Designers","city":"New York","neighborhood":"New York","address":"1400 Broadway, New York, NY 10018، الولايات المتحدة","phone":"+1 917-267-9880","website":"https://jensencointeriors.com/","description":"","image_url":"https://lh3.googleusercontent.com/gps-cs-s/AHVAweoow0JidxxYLxngxlc2isjBEKjlQXGuT8og_T-nk6Lr617L048Gy-Fxb-bf4qF62qi0-K_x-tPNj4H5rYxcTcn9FPygfppiNs5TLcMP76alf5nTxR7SB38b3B0qsNYE1Dvt2_Fv=w408-h272-k-no","rating":4.9,"review_count":null,"price_range":"","featured":false,"services":"","hours":"","source":"Google Maps"},{"id":"recPp56crVdiJK1IS","name":"Pretty Please Skincare & Facial Spa","slug":"pretty-please-skincare-facial-spa","category":"Med Spas","city":"New York","neighborhood":"New York","address":"1133 Broadway Suite 415, New York, NY 10010، الولايات المتحدة","phone":"+1 646-363-6292","website":"http://www.prettypleaseny.com/","description":"","image_url":"https://lh3.googleusercontent.com/gps-cs-s/AHVAweqHeL6qgaQ1qUBrFfDGKU4yqBf7Kcr_s796y-Mhe2s3rFaQwgZL1To_FY6cMgwt3rfmydlDW2h1YSnTZKZTvr7YogZD4OFSBXcnO__yvN1xL1K1e5Ao4SBOzxOsTgDU2uwzs2gT_w=w86-h128-k-no","rating":4.9,"review_count":null,"price_range":"","featured":false,"services":"","hours":"الخميس: ","source":"Google Maps"},{"id":"recPysGJ9vQE2ZVKa","name":"LING Spa Union Square","slug":"ling-spa-union-square","category":"Med Spas","city":"New York","neighborhood":"New York","address":"61 E 11th St, New York, NY 10003، الولايات المتحدة","phone":"+1 212-989-8833","website":"http://lingspa.com/?utm_source=google&utm_medium=wix_google_business_profile&utm_campaign=10961591109581304791","description":"","image_url":"https://lh3.googleusercontent.com/gps-cs-s/AHVAweqn6WXK_JCz0_6LOIIAqwVd-xI3PNVWrii9evyWhmQvkqnoWrxsSZMS3XAheqpqsDGZV_q4EBFzgNnPwlsJHcvPTdvMJYGXnPNPm2HpHZpzUpfmakEMVhJo9tPhzEXT9UDBq7KB=w408-h404-k-no","rating":4.7,"review_count":null,"price_range":"","featured":false,"services":"","hours":"الخميس: ","source":"Google Maps"},{"id":"recQjQN2JK5KKBhPq","name":"NYC Interior Design ®","slug":"nyc-interior-design","category":"Interior Designers","city":"New York","neighborhood":"New York","address":"57 W 57th St 4th floor, New York, NY 10019، الولايات المتحدة","phone":"+1 212-961-7767","website":"https://nycinteriordesign.com/","description":"","image_url":"https://lh3.googleusercontent.com/gps-cs-s/AHVAweoF0FEhjENrsM39TUeoZz32s46LiV2G9zIfqtOZVsS9dCJLPEk4hsGwf57hdEgnfB-JQhJXTF2fVUOut3WY_fbSLM_gypKwfz8E5iLnJfoc1YkBEk35JBR6c9Ha7z1I_TsAnTX5=w410-h240-k-no","rating":5,"review_count":null,"price_range":"","featured":false,"services":"","hours":"الخميس: ","source":"Google Maps"},{"id":"recSn6gSklOugivrM","name":"Take a Chef NYC","slug":"take-a-chef-nyc","category":"Private Chefs","city":"New York","neighborhood":"Manhattan","address":"New York, NY","phone":"","website":"https://www.takeachef.com/en/private-chefs/new-york","description":"Private chef marketplace connecting New Yorkers with professional chefs for in-home dining. Custom menus, dietary accommodations, and full-service catering.","image_url":"https://d1zzxdyvtq79bu.cloudfront.net/context/frontend/images/open-graph/chef_privado_take_a_chef.jpg","rating":null,"review_count":null,"price_range":"$$$","featured":true,"services":"","hours":"","source":"Manual"},{"id":"recTWBKDiYkGSuOYv","name":"Private Chef NY - Yllan Laloum","slug":"private-chef-ny-yllan-laloum","category":"Private Chefs","city":"New York","neighborhood":"Brooklyn","address":"22 N 6th St, Brooklyn, NY 11249، الولايات المتحدة","phone":"+1 917-293-0407","website":"https://privatechefnewyork.com/","description":"","image_url":"","rating":4.9,"review_count":null,"price_range":"","featured":false,"services":"","hours":"","source":"Google Maps"},{"id":"recU2yf5yTzzgMHWY","name":"Season Spa | Facial, Massage, Lymphatic Drainage Therapy","slug":"season-spa-facial-massage-lymphatic-drainage-therapy","category":"Med Spas","city":"New York","neighborhood":"New York","address":"165 Hester St, New York, NY 10013، الولايات المتحدة","phone":"+1 212-966-7416","website":"http://seasonspa-nyc.com/","description":"","image_url":"https://lh3.googleusercontent.com/gps-cs-s/AHVAweptXK_F1_zoLmq8_GKbzQG5qs--FHKRVsQGUslj_8r_6UqdVeKvVJxtTNT8lxOv3pY4VsaljhGuykp-xC2mqkvOW4Jg-SBG5wM6jdRW2b-bRmhMI4K8zIBUiGlY4UDjl0pvDIaR-A=w408-h271-k-no","rating":4.6,"review_count":null,"price_range":"","featured":false,"services":"","hours":"الخميس: ","source":"Google Maps"},{"id":"recUGlblOvrj7KNaM","name":"Vanessa Rome Interiors","slug":"vanessa-rome-interiors","category":"Interior Designers","city":"New York","neighborhood":"Upper East Side","address":"New York, NY 10021","phone":"","website":"https://www.vanessaromeinteriors.com","description":"Full-service luxury interior design for Manhattan penthouses, townhouses, and Park Avenue residences. Specializes in classic elegance with modern comfort.","image_url":"http://static1.squarespace.com/static/663115a2fc1646329535882c/t/663119994925392bc0c69bfa/1714493849148/VRI+LOGO.png?format=1500w","rating":null,"review_count":null,"price_range":"$$$$","featured":false,"services":"","hours":"الخميس: ","source":"Manual"},{"id":"recUMYAHANJORmAdc","name":"Sygrove Associates Design Group","slug":"sygrove-associates-design-group","category":"Interior Designers","city":"New York","neighborhood":"New York","address":"1 Union Square W #808, New York, NY 10003، الولايات المتحدة","phone":"+1 212-757-0631","website":"http://www.sygrove.com/","description":"","image_url":"https://lh3.googleusercontent.com/gps-cs-s/AHVAweowjoZOQ_jeGsqT7zzifRdVe_j7WGkM4JeFhLb-MnH5pJ1xQhvUiRn_qNFe_IRmZooBHhG4NIRjxZYsfcJel8xXRxI3QpS6Mzyzdywk4yZ03x53UGosWfq7adq7m9g2N0a44nGa68dtcnF7=w408-h509-k-no","rating":4.7,"review_count":null,"price_range":"","featured":false,"services":"","hours":"الخميس: ","source":"Google Maps"},{"id":"recUgtwrwwLXWD2bH","name":"Chef Lonnie | Private Chef NYC","slug":"chef-lonnie-private-chef-nyc","category":"Private Chefs","city":"New York","neighborhood":"Brooklyn","address":"119 Brooklyn Ave, Brooklyn, NY 11213، الولايات المتحدة","phone":"","website":"https://www.cheflonnie.com/","description":"","image_url":"https://lh3.googleusercontent.com/gps-cs-s/AHVAweqQhRpANyj7mHxGzvjrqvAcLVrsuZwywqqzwUgG1ywb0DXsae_aEpdyz_AgW3cboSQUtKd_LQQBMZnU_wJ71fanaOcnTAm6hDW6t3ytAoMqAJ6kd5iU70rVDl7NPfWGoNt3W-2LHQ=w408-h432-k-no","rating":4.9,"review_count":null,"price_range":"","featured":false,"services":"","hours":"الخميس: ","source":"Google Maps"},{"id":"recUwDXU0Gxq2tEFG","name":"Alloro - New York Private Dining","slug":"alloro-new-york-private-dining","category":"Private Chefs","city":"New York","neighborhood":"","address":"","phone":"+1 347-533-0059","website":"https://www.alloroprivatedining.com/","description":"","image_url":"","rating":5,"review_count":null,"price_range":"","featured":false,"services":"","hours":"الخميس: ","source":"Google Maps"},{"id":"recX3yzp4cHJMIWAA","name":"Gachot Studios","slug":"gachot-studios","category":"Interior Designers","city":"New York","neighborhood":"SoHo","address":"594 Broadway, New York, NY 10012","phone":"(212) 274-9500","website":"https://www.gachotstudios.com","description":"Boutique design firm specializing in high-end residential and hospitality projects. European-inspired elegance with a New York edge.","image_url":"http://static1.squarespace.com/static/5e8617fc5c4a0610e5a4b4b0/t/5e87564669bf07395651885b/1585927751799/Gachot_Logo_v.png?format=1500w","rating":null,"review_count":null,"price_range":"$$$$","featured":false,"services":"","hours":"الخميس: ","source":"Manual"},{"id":"recXZsvYKhhEbnavz","name":"Kariné Kazarian - Greenwich Village","slug":"karin-kazarian-greenwich-village","category":"Med Spas","city":"New York","neighborhood":"New York","address":"27 W 8th St, New York, NY 10011، الولايات المتحدة","phone":"+1 212-533-1010","website":"http://www.karinekazarian.com/","description":"","image_url":"https://lh3.googleusercontent.com/gps-cs-s/AHVAweo94_T0ho6T8MOVDVlUXBiIg6P3Q2ZiZ3F3NIMEcMPOAKXyWy3Ai9DKFh9pndDJ9qQYc-tD6ovI1SJyuk8KDrR-BB5r6nvl-InpI47z1pKpDrLbRLww0yApE3W4J8nST9SJZB82Ew=w129-h86-k-no","rating":4.9,"review_count":null,"price_range":"","featured":false,"services":"","hours":"الخميس: ","source":"Google Maps"},{"id":"recalcogWgyMbtLcS","name":"Deep Blue Med Spa","slug":"deep-blue-med-spa","category":"Med Spas","city":"New York","neighborhood":"New York","address":"1040 Park Ave Suite 1BC, New York, NY 10028، الولايات المتحدة","phone":"+1 646-480-6226","website":"https://www.deepbluemedspa.com/?utm_source=googlemybusiness&utm_medium=organic&utm_campaign=deep+blue+med+spa+manhattan","description":"","image_url":"https://lh3.googleusercontent.com/gps-cs-s/AHVAweqsljgipkxw_nPdhj6qrv-Nn8wWTD05W3atnHxu-rf-3_2hKx3G0YsDASeCNzZNoxu-uiIi40HDxo2rWqwWj4OQiDInUJWtNha7-j8P-pOltBkI6JxUSJQYIKq1rfyHP7zhL65big=w740-h240-k-no","rating":4.8,"review_count":null,"price_range":"","featured":false,"services":"","hours":"الخميس: ","source":"Google Maps"},{"id":"recbVuB3VR53bHHne","name":"Chef Antonio Personal Chef Services","slug":"chef-antonio-personal-chef-services","category":"Private Chefs","city":"New York","neighborhood":"","address":"","phone":"+1 718-608-4418","website":"https://www.instagram.com/invites/contact/?i=1hoddtmwx9ztf&utm_content=2hxobry","description":"","image_url":"","rating":5,"review_count":null,"price_range":"","featured":false,"services":"نعمل على مدار 24 ساعة","hours":"الخميس: ","source":"Google Maps"},{"id":"recbvNwYyeASCGXQ6","name":"Kelly Behun Studio","slug":"kelly-behun-studio","category":"Interior Designers","city":"New York","neighborhood":"SoHo","address":"180 Varick St, New York, NY 10014","phone":"","website":"https://www.kellybehun.com","description":"Award-winning interior design studio known for bold, art-driven residential spaces. Featured in Architectural Digest, Elle Decor, and Vogue.","image_url":"http://static1.squarespace.com/static/578bbbc546c3c4caeeca2291/t/64e559fe4a1ab1368572abd4/1696534525892/KBS_Logo_horizontal.png?format=1500w","rating":null,"review_count":null,"price_range":"$$$$","featured":false,"services":"","hours":"","source":"Manual"},{"id":"reccSTE0VSbk0bDlV","name":"Hire a Chef","slug":"hire-a-chef-nyc","category":"Private Chefs","city":"New York","neighborhood":"Manhattan","address":"New York, NY","phone":"","website":"https://www.hireachef.com","description":"Premier private chef hiring platform connecting New York hosts with vetted culinary professionals for dinner parties, weekly meal prep, and special occasions.","image_url":"https://www.hireachef.com/images/HAC-LAUNCH-HEADER-2.png","rating":null,"review_count":null,"price_range":"$$$","featured":false,"services":"","hours":"الخميس: ","source":"Manual"},{"id":"recehbgWx7GofiTI1","name":"Chef David Feldman, Personal Chef & Caterer | NY | NJ | CT | MIAMI","slug":"chef-david-feldman-personal-chef-caterer-ny-nj-ct-miami","category":"Private Chefs","city":"New York","neighborhood":"New York","address":"75 West End Ave, New York, NY 10023، الولايات المتحدة","phone":"+1 916-633-9055","website":"https://www.chefdavidfeldman.com/","description":"","image_url":"","rating":5,"review_count":null,"price_range":"","featured":false,"services":"","hours":"","source":"Google Maps"},{"id":"recfh13BM2pCvqV3b","name":"Affordable Interior Design by Uploft","slug":"affordable-interior-design-by-uploft","category":"Interior Designers","city":"New York","neighborhood":"New York","address":"22 Cornelia St, New York, NY 10014، الولايات المتحدة","phone":"+1 917-767-2313","website":"https://affordableinteriordesign.com/","description":"","image_url":"https://lh3.googleusercontent.com/gps-cs-s/AHVAwerRfEgP7PKNk4PJwIJvJ3l-oINyb1LofD2G0ZFvj0t5jwOS6uUjCjagH1uwkuOpGAY8SW8DnrAFHtGEUnNjlev71oYfIPnvnyPRCfMLpEVUMF4BXZ_-peCoR0Ej-00t2Kp8X44=w408-h272-k-no","rating":4.9,"review_count":null,"price_range":"","featured":false,"services":"","hours":"الخميس: ","source":"Google Maps"},{"id":"recfn6MU93CplQina","name":"Perfect Med Spa","slug":"perfect-med-spa","category":"Med Spas","city":"New York","neighborhood":"New York","address":"109 E 36th St Ground floor, New York, NY 10016، الولايات المتحدة","phone":"+1 212-901-0656","website":"https://www.perfectmedspa.com/?utm_source=google&utm_medium=organic&utm_campaign=gbp&utm_term=Perfect-Med-Spa&utm_content=website","description":"","image_url":"","rating":4.8,"review_count":null,"price_range":"","featured":false,"services":"","hours":"الخميس: ","source":"Google Maps"},{"id":"recgE73ZEgopYe1qu","name":"Holistic Harmony MedSpa","slug":"holistic-harmony-medspa","category":"Med Spas","city":"New York","neighborhood":"Bronx","address":"2700 Grand Concourse Suite 1, Bronx, NY 10458، الولايات المتحدة","phone":"+1 347-845-3342","website":"https://holisticharmonymedspa.com/","description":"","image_url":"https://lh3.googleusercontent.com/gps-cs-s/AHVAwepRnuUyrP3WHlCzSzOTk0_vQNGjCVQvwhFc6hOdaCDzQcHygBcVpg3azFsZtBFbW6SgbRyvAdi_NxQKr2YObZSjamn-OpOCTBuy830gB6lFNKC3riV_6Ax8k8j_-SCHo6jVLqzR=w408-h510-k-no","rating":5,"review_count":null,"price_range":"","featured":false,"services":"","hours":"الخميس: ","source":"Google Maps"},{"id":"recj7uW0GMBPnTqJC","name":"SkinSpirit","slug":"skinspirit-nyc","category":"Med Spas","city":"New York","neighborhood":"Upper East Side","address":"1049 Park Ave, New York, NY 10028","phone":"(212) 988-8800","website":"https://www.skinspirit.com","description":"Premium med spa offering Botox, fillers, laser treatments, and facials. Known for natural-looking results and expert injectors.","image_url":"https://cdn.prod.website-files.com/64fb26e78d22031b6dda81de/6540bfbb8b854f25dbe5a42b_Skin-Spirit-Default-Open-Graph-Image.jpg","rating":null,"review_count":null,"price_range":"$$$$","featured":true,"services":"","hours":"الخميس: ","source":"Manual"},{"id":"recj9qWFqoXiNvrq2","name":"ASH NYC","slug":"ash-nyc","category":"Interior Designers","city":"New York","neighborhood":"Brooklyn","address":"Brooklyn, NY 11201","phone":"","website":"https://www.ashnyc.com","description":"Design and development studio known for transforming historic buildings into stunning residences and boutique hotels. Bold, narrative-driven interiors.","image_url":"https://a.storyblok.com/f/164039/1920x1254/eaae22cf67/the-schoolhouse-slideshow-01.jpeg","rating":null,"review_count":null,"price_range":"$$$","featured":true,"services":"","hours":"","source":"Manual"},{"id":"recjICX25x56GPJ4m","name":"SoVous","slug":"sovous","category":"Med Spas","city":"New York","neighborhood":"New York","address":"9 E 68th St #1C, New York, NY 10065، الولايات المتحدة","phone":"+1 212-575-1457","website":"https://sovous.com/?utm_source=google&utm_medium=organic&utm_campaign=gbp","description":"","image_url":"https://lh3.googleusercontent.com/gps-cs-s/AHVAwep29x1TjI8brAuzruHqPH4CTJs1BIMN7xNybYP2zuho4xhqQQOYkBupVG6fPK01bc6YA9JQfQXYCNS8kxUpV7iHHGMm6dcq-3upNRDHPr5j-aCq79SU6VAD3Zk7QZn0QfCLbwdD=w408-h272-k-no","rating":5,"review_count":null,"price_range":"","featured":false,"services":"","hours":"الخميس: ","source":"Google Maps"},{"id":"recnilTyHV0V2cSil","name":"DHD Architecture & Interior Design","slug":"dhd-architecture-interior-design","category":"Interior Designers","city":"New York","neighborhood":"New York","address":"65 N Moore St Second Floor, New York, NY 10013، الولايات المتحدة","phone":"+1 212-477-7700","website":"http://dhd.nyc/","description":"","image_url":"https://lh3.googleusercontent.com/gps-cs-s/AHVAweqeKVe6vVFWspET9QUn50E2i4Aes2tLjlwI0MkspblT4ANX_DX8ylH4RHq80GyUwET6xUZ79vgDVOdig70AtGFPMepEGQRygCbPVvJDCjZJSoLxgtDliaeszdZEVpD_3iLKeYnB=w408-h272-k-no","rating":5,"review_count":null,"price_range":"","featured":false,"services":"","hours":"الخميس: ","source":"Google Maps"},{"id":"recpJXyOkwhzoHW2A","name":"Good Face Spa","slug":"good-face-spa","category":"Med Spas","city":"New York","neighborhood":"Brooklyn","address":"109 N 12th St Ste 807, Brooklyn, NY 11249، الولايات المتحدة","phone":"+1 347-909-5027","website":"http://www.goodfacespa.com/","description":"","image_url":"https://lh3.googleusercontent.com/gps-cs-s/AHVAweqml1vBMiv6cXJI5plwj6f5jKjA4szqhEZjDQDsqbYujZTD-V5i5X5YWn4QavTcfToXRwUH8nqOTIljrnzXElpznQG-e-hD8vcXcj2jPpHizvgG6ho2RIfuoo03_gbGY8H-3fYI3g=w408-h448-k-no","rating":4.8,"review_count":null,"price_range":"","featured":false,"services":"","hours":"الخميس: ","source":"Google Maps"},{"id":"recpkgB47yKgKnSZF","name":"SKINNEY Medspa","slug":"skinney-medspa","category":"Med Spas","city":"New York","neighborhood":"New York","address":"125 5th Ave Floor 2, New York, NY 10003، الولايات المتحدة","phone":"+1 646-212-2316","website":"https://skinneymedspa.com/?utm_source=google&utm_medium=organic&utm_campaign=gmb-flagship-nyc","description":"","image_url":"","rating":4.7,"review_count":null,"price_range":"","featured":false,"services":"","hours":"الخميس: ","source":"Google Maps"},{"id":"recqqSqDBTplbQ3GN","name":"Chef Omakase","slug":"chef-omakase","category":"Private Chefs","city":"New York","neighborhood":"New York","address":"641 5th Ave, New York, NY 10022، الولايات المتحدة","phone":"+1 646-612-7790","website":"http://chefomakase.com/","description":"","image_url":"","rating":4.9,"review_count":null,"price_range":"","featured":false,"services":"","hours":"الخميس: ","source":"Google Maps"},{"id":"recsV7PriMA1hGJxO","name":"SkinSpirit New York - UES","slug":"skinspirit-new-york-ues","category":"Med Spas","city":"New York","neighborhood":"New York","address":"160 E 89th St, New York, NY 10128، الولايات المتحدة","phone":"+1 212-838-4800","website":"https://www.skinspirit.com/locations/nyc-east89/","description":"","image_url":"https://lh3.googleusercontent.com/gps-cs-s/AHVAweprcTD92Sih5ri5iAMp8BXfyAIwbotF_RG5wHrTgLlfQGpoprnSQfplIzWMLihYrsIZFMMoRHIB6jurvIt77Lbtf8_x3ONc1TPayUzN0Cz4QgnckSfGr3GPn5gXVkiqAZnvpP64=w426-h240-k-no","rating":4.9,"review_count":null,"price_range":"","featured":false,"services":"","hours":"الخميس: ","source":"Google Maps"},{"id":"recsgKMNWFfFgkNyN","name":"AXIS MUNDI Interior Designers NYC","slug":"axis-mundi-interior-designers-nyc","category":"Interior Designers","city":"New York","neighborhood":"New York","address":"2 E Broadway 7th floor, New York, NY 10038، الولايات المتحدة","phone":"+1 347-387-1569","website":"http://axismundi.com/","description":"","image_url":"https://lh3.googleusercontent.com/gps-cs-s/AHVAweqtiCXBI2AHETRQs0bt5luMwfMM2UUrrUh-v6NA7yNTOtfo8v9KabO9DhwLhDjxEMkS6PuAOfY6292xhKWKahTzDuhNePQM-b7ayiVJV0bMXi0wy-ndg867xZ7ccPx5QAREWTka=w408-h408-k-no","rating":4.6,"review_count":null,"price_range":"","featured":false,"services":"","hours":"الخميس: ","source":"Google Maps"},{"id":"recthnqitOurJZzaI","name":"Youtherapy Medspa - William Greenberg, MD","slug":"youtherapy-medspa-william-greenberg-md","category":"Med Spas","city":"New York","neighborhood":"New York","address":"205 E 78th St Ground Level, New York, NY 10075، الولايات المتحدة","phone":"+1 212-253-7138","website":"http://www.youtherapymedspa.com/","description":"","image_url":"https://lh3.googleusercontent.com/gps-cs-s/AHVAwepE8g7w4JzXpYYvh3r2vvuNXNqxm-K8QKfSv5R6veO3tm-Q7NncGGtAI1ZT47g2IyDQ2Z3PCNlr84TBTTIC2jM6jxZogVGS-fJjoDP-ZyxeBCw2ETbsjULUL4cJACQyuTUTfuCJSzpUOIJY=w408-h306-k-no","rating":4.9,"review_count":null,"price_range":"","featured":false,"services":"","hours":"الخميس: ","source":"Google Maps"},{"id":"recvJ1rd9Qw4F1vmc","name":"Elite Aesthetics","slug":"elite-aesthetics","category":"Med Spas","city":"New York","neighborhood":"New York","address":"1145 Broadway Floor 2, New York, NY 10001، الولايات المتحدة","phone":"+1 212-647-1930","website":"https://eliteaestheticsnyc.com/?utm_source=GMBlisting&utm_medium=organic&utm_campaign=elite-aesthetics","description":"","image_url":"https://lh3.googleusercontent.com/gps-cs-s/AHVAwepDvRq6o0ww8P0DJUyyOy6UOsg0ipiijblM-DQGaRQluSKtko93SLf7URRzssb5mGYpi_QtusB-NUEvvUDk9TMsz_rCf8bgAXkwt59aUzjcjivqDSa0YkZjczKnSFASvIrtOBse9llkoG4a=w408-h336-k-no","rating":5,"review_count":null,"price_range":"","featured":false,"services":"","hours":"الخميس: ","source":"Google Maps"},{"id":"recvUb9i4ZN9hcsjw","name":"ChefMaison","slug":"chefmaison-nyc","category":"Private Chefs","city":"New York","neighborhood":"Manhattan","address":"New York, NY","phone":"","website":"https://www.chefmaison.com","description":"Book private chefs for unforgettable in-home dining. Browse chef profiles, view menus, and book online. From intimate dinners to large celebrations.","image_url":"https://chefmaison.com/home/home_img2.jpg","rating":null,"review_count":null,"price_range":"$$$","featured":false,"services":"","hours":"","source":"Manual"},{"id":"recwFIaa6bPWO4f3j","name":"Silver Mirror Facial Bar","slug":"silver-mirror-facial-bar","category":"Med Spas","city":"New York","neighborhood":"Midtown","address":"44 E 32nd St, New York, NY 10016","phone":"(212) 388-1100","website":"https://www.silvermirror.com","description":"High-tech facial bar offering customized treatments using medical-grade products. LED therapy, microcurrent, chemical peels, and signature facials.","image_url":"https://silvermirror.com/wp-content/uploads/2026/02/Homepage_banners-FEB_HERO-D-C-scaled.jpg","rating":null,"review_count":null,"price_range":"$$","featured":false,"services":"","hours":"الخميس: ","source":"Manual"},{"id":"recxRsXd6pExMI2Nq","name":"AestheticsMD by Jean Rhee Upper East Side","slug":"aestheticsmd-by-jean-rhee-upper-east-side","category":"Med Spas","city":"New York","neighborhood":"New York","address":"673 Madison Ave 2nd Floor, New York, NY 10065، الولايات المتحدة","phone":"+1 212-933-4001","website":"https://www.aestheticsmd.co/","description":"","image_url":"https://lh3.googleusercontent.com/gps-cs-s/AHVAwepTM798-OY2dw9lTXOuMzCQXhN66HyPtkpcFYfB8ZqWQKZhzdZ83aKMZpS8GwM4JVj3TeHDysvkOPNbwSngoiacG7EzgTuT3K_kGc0ljkH_gSb6_iuAWaSeb6p1g2r38Sx_f3E=w114-h86-k-no","rating":5,"review_count":null,"price_range":"","featured":false,"services":"","hours":"الخميس: ","source":"Google Maps"},{"id":"recxigDzfGyOBxcPn","name":"Private Chefs Inc.","slug":"private-chefs-inc","category":"Private Chefs","city":"New York","neighborhood":"New York","address":"954 Lexington Ave Suite 129, New York, NY 10021، الولايات المتحدة","phone":"+1 800-921-2433","website":"http://www.privatechefsinc.com/","description":"","image_url":"","rating":5,"review_count":null,"price_range":"","featured":false,"services":"","hours":"الخميس: ","source":"Google Maps"},{"id":"recyQQk2DQRa1GibB","name":"VJ MedSpa","slug":"vj-medspa","category":"Med Spas","city":"New York","neighborhood":"New York","address":"1220 Lexington Ave Suite 2A, New York, NY 10028، الولايات المتحدة","phone":"+1 212-365-4783","website":"https://vjmednyc.com/","description":"","image_url":"https://lh3.googleusercontent.com/gps-cs-s/AHVAweobTwR4T5ZsKmWaAXQ1Aev6eEHLv5FcTeVRjfqESTIZDKCe4VSCR953pkeI4yuTQuvdbFxx8nF2u8axLpmOjqDhOZJFE7rIOXgxxmZmMGpxmXPVa7PlnWbK695kJ8eneoro5ALk=w425-h240-k-no","rating":4.4,"review_count":null,"price_range":"","featured":false,"services":"","hours":"الخميس: ","source":"Google Maps"},{"id":"reczEnWyJc9eCnh0w","name":"Manhattan Medspa","slug":"manhattan-medspa","category":"Med Spas","city":"New York","neighborhood":"New York","address":"220 Madison Ave Penthouse C, New York, NY 10016، الولايات المتحدة","phone":"+1 212-729-5797","website":"https://www.manhattan-medspa.com/","description":"","image_url":"","rating":4.5,"review_count":null,"price_range":"","featured":false,"services":"","hours":"الخميس: ","source":"Google Maps"},{"id":"reczj4vrN7Wsvy5Ph","name":"Betty Wasserman Art & Interiors – NYC Interior Designers","slug":"betty-wasserman-art-interiors-nyc-interior-designers","category":"Interior Designers","city":"New York","neighborhood":"","address":"","phone":"+1 212-352-8476","website":"https://www.bettywasserman.com/","description":"","image_url":"","rating":4.3,"review_count":null,"price_range":"","featured":false,"services":"","hours":"الخميس: ","source":"Google Maps"}],"count":66,"exported_at":"2026-02-19T09:13:59.866Z"}